{"type":"FeatureCollection","features":[{"type":"Feature","properties":{"ID":"1","Name":"Mongla Port","Latitude":"22.47073889","Longitude":"89.58883889"},"geometry":{"type": "Point","coordinates":[89.5888388891035,22.470738889088523,0]}},{"type":"Feature","properties":{"ID":"2","Name":"Fultala Ghat","Latitude":"22.92692500","Longitude":"89.51374167"},"geometry":{"type": "Point","coordinates":[89.5137416671443,22.926924999888911,0]}},{"type":"Feature","properties":{"ID":"3","Name":"Bakail Bridge (Titas)","Latitude":"24.04520278","Longitude":"91.17679167"},"geometry":{"type": "Point","coordinates":[91.176791666702115,24.045202777586155,0]}},{"type":"Feature","properties":{"ID":"4","Name":"TSP (Avg)","Latitude":"22.27591111","Longitude":"91.80411111"},"geometry":{"type": "Point","coordinates":[91.804111111438715,22.275911110909078,0]}},{"type":"Feature","properties":{"ID":"5","Name":"Chattak","Latitude":"25.03950556","Longitude":"91.67219444"},"geometry":{"type": "Point","coordinates":[91.672194443818569,25.039505556036659,0]}},{"type":"Feature","properties":{"ID":"6","Name":"Karnaphuli Urea Fertilizer Ltd (Avg)","Latitude":"22.23846944","Longitude":"91.82208333"},"geometry":{"type": "Point","coordinates":[91.822083333179364,22.238469443709903,0]}},{"type":"Feature","properties":{"ID":"7","Name":"Karnaphuli Urea Fertilizer Ltd (DS)","Latitude":"22.23022778","Longitude":"91.81209722"},"geometry":{"type": "Point","coordinates":[91.812097221609577,22.230227777689834,0]}},{"type":"Feature","properties":{"ID":"8","Name":"Karnaphuli Urea Fertilizer Ltd.(US)","Latitude":"22.24561389","Longitude":"91.83058333"},"geometry":{"type": "Point","coordinates":[91.830583333054449,22.245613889169704,0]}},{"type":"Feature","properties":{"ID":"9","Name":"TSP Downstream","Latitude":"22.27404167","Longitude":"91.80928056"},"geometry":{"type": "Point","coordinates":[91.8092805557531,22.274041666789515,0]}},{"type":"Feature","properties":{"ID":"10","Name":"TSP Upstream","Latitude":"22.27909444","Longitude":"91.79933889"},"geometry":{"type": "Point","coordinates":[91.799338888678847,22.279094443853523,0]}},{"type":"Feature","properties":{"ID":"11","Name":"Mawa Ferighat","Latitude":"23.47214444","Longitude":"90.25498333"},"geometry":{"type": "Point","coordinates":[90.254983332814618,23.472144443811089,0]}},{"type":"Feature","properties":{"ID":"12","Name":"Hossain Dyeing","Latitude":"23.88965000","Longitude":"90.42326389"},"geometry":{"type": "Point","coordinates":[90.423263888617612,23.889650000247343,0]}},{"type":"Feature","properties":{"ID":"13","Name":"Ghorashal Fertilizer Factory","Latitude":"23.98912500","Longitude":"90.63616111"},"geometry":{"type": "Point","coordinates":[90.63616111064681,23.98912500011869,0]}},{"type":"Feature","properties":{"ID":"14","Name":"Pagla Ghat","Latitude":"23.71885278","Longitude":"90.50100556"},"geometry":{"type": "Point","coordinates":[90.501005556261475,23.718852778033352,0]}},{"type":"Feature","properties":{"ID":"15","Name":"Hazaribagh","Latitude":"23.74046944","Longitude":"90.35199722"},"geometry":{"type": "Point","coordinates":[90.351997221894351,23.740469443909774,0]}},{"type":"Feature","properties":{"ID":"16","Name":"Mirpur Bridge","Latitude":"23.78435689","Longitude":"90.33548948"},"geometry":{"type": "Point","coordinates":[90.335489482253877,23.784356888559614,0]}},{"type":"Feature","properties":{"ID":"17","Name":"Kamrangir Char","Latitude":"23.71439444","Longitude":"90.36052778"},"geometry":{"type": "Point","coordinates":[90.360527778034566,23.714394443848562,0]}},{"type":"Feature","properties":{"ID":"18","Name":"Chandni Ghat","Latitude":"23.71133889","Longitude":"90.39064167"},"geometry":{"type": "Point","coordinates":[90.390641666679642,23.711338889278352,0]}},{"type":"Feature","properties":{"ID":"19","Name":"Sadar Ghat","Latitude":"23.69947778","Longitude":"90.41661944"},"geometry":{"type": "Point","coordinates":[90.416619443732372,23.699477777577442,0]}},{"type":"Feature","properties":{"ID":"20","Name":"Dholaikhal","Latitude":"23.70990833","Longitude":"90.41914167"},"geometry":{"type": "Point","coordinates":[90.419141667054362,23.709908333203089,0]}},{"type":"Feature","properties":{"ID":"21","Name":"Pagla","Latitude":"23.66108056","Longitude":"90.45523333"},"geometry":{"type": "Point","coordinates":[90.455233333151853,23.661080556422576,0]}},{"type":"Feature","properties":{"ID":"22","Name":"BCF Bridge","Latitude":"23.68731389","Longitude":"90.42646667"},"geometry":{"type": "Point","coordinates":[90.426466666703391,23.687313889324571,0]}},{"type":"Feature","properties":{"ID":"23","Name":"Near ACI","Latitude":"23.79106111","Longitude":"90.52270278"},"geometry":{"type": "Point","coordinates":[90.522702778010853,23.791061111381225,0]}},{"type":"Feature","properties":{"ID":"24","Name":"Tongi Rail Bridge","Latitude":"23.88196667","Longitude":"90.40610556"},"geometry":{"type": "Point","coordinates":[90.40610555602666,23.881966666628387,0]}},{"type":"Feature","properties":{"ID":"25","Name":"Azmeri Composite Ltd.","Latitude":"23.88340556","Longitude":"90.41291944"},"geometry":{"type": "Point","coordinates":[90.412919443977216,23.88340555582181,0]}},{"type":"Feature","properties":{"ID":"26","Name":"Indigo Washing Plant Ltd.","Latitude":"23.88194722","Longitude":"90.40207778"},"geometry":{"type": "Point","coordinates":[90.402077777667387,23.88194722238643,0]}},{"type":"Feature","properties":{"ID":"27","Name":"Muktarpur Ferighat","Latitude":"23.56674167","Longitude":"90.51509167"},"geometry":{"type": "Point","coordinates":[90.5150916671468,23.56674166659468,0]}},{"type":"Feature","properties":{"ID":"28","Name":"Horindhora","Latitude":"23.78839722","Longitude":"90.24106111"},"geometry":{"type": "Point","coordinates":[90.241061110781686,23.788397222353979,0]}},{"type":"Feature","properties":{"ID":"29","Name":"Bahadurabad Ghat","Latitude":"25.16434722","Longitude":"89.73188611"},"geometry":{"type": "Point","coordinates":[89.731886111355038,25.164347222046729,0]}},{"type":"Feature","properties":{"ID":"30","Name":"Jamuna Fertilizer","Latitude":"24.66840556","Longitude":"89.81662222"},"geometry":{"type": "Point","coordinates":[89.81662222203795,24.668405555871743,0]}},{"type":"Feature","properties":{"ID":"31","Name":"Meghna Ghat","Latitude":"23.60857222","Longitude":"90.61298889"},"geometry":{"type": "Point","coordinates":[90.6129888892259,23.608572222330224,0]}},{"type":"Feature","properties":{"ID":"32","Name":"Bashundhara Paper Mills","Latitude":"23.61136389","Longitude":"90.61858333"},"geometry":{"type": "Point","coordinates":[90.6185833333542,23.611363888832443,0]}},{"type":"Feature","properties":{"ID":"33","Name":"Shahjalal Paper Mill","Latitude":"23.57370278","Longitude":"90.55158611"},"geometry":{"type": "Point","coordinates":[90.551586110810433,23.573702778060806,0]}},{"type":"Feature","properties":{"ID":"34","Name":"Bhairab Bridge","Latitude":"24.04328611","Longitude":"90.99404167"},"geometry":{"type": "Point","coordinates":[90.994041666689611,24.043286110965312,0]}},{"type":"Feature","properties":{"ID":"35","Name":"Mohra WASA WTP (US)","Latitude":"22.41809722","Longitude":"91.88261667"},"geometry":{"type": "Point","coordinates":[91.882616666825754,22.41809722240896,0]}},{"type":"Feature","properties":{"ID":"36","Name":"Mohra WASA WTP (DS)","Latitude":"22.41261111","Longitude":"91.88840278"},"geometry":{"type": "Point","coordinates":[91.888402778065824,22.412611110614307,0]}},{"type":"Feature","properties":{"ID":"37","Name":"Mohra WASA WTP (Avg)","Latitude":"22.41510833","Longitude":"91.88545833"},"geometry":{"type": "Point","coordinates":[91.8854583329358,22.415108332783404,0]}},{"type":"Feature","properties":{"ID":"38","Name":"Modunaghat Bridge (Mid)","Latitude":"22.43448611","Longitude":"91.87242778"},"geometry":{"type": "Point","coordinates":[91.872427777919654,22.434486111245064,0]}},{"type":"Feature","properties":{"ID":"39","Name":"Gollamari Bridge (Mid)","Latitude":"22.80049722","Longitude":"89.54029167"},"geometry":{"type": "Point","coordinates":[89.540291666627184,22.800497222069168,0]}},{"type":"Feature","properties":{"ID":"40","Name":"Rupsha Ghat (W)","Latitude":"22.80222222","Longitude":"89.58153056"},"geometry":{"type": "Point","coordinates":[89.581530555690676,22.80222222157829,0]}},{"type":"Feature","properties":{"ID":"41","Name":"Rupsha Ghat (E)","Latitude":"22.80144722","Longitude":"89.58448056"},"geometry":{"type": "Point","coordinates":[89.584480555932942,22.801447221811884,0]}},{"type":"Feature","properties":{"ID":"42","Name":"Rupsha Ghat (Mid)","Latitude":"22.80185278","Longitude":"89.58305556"},"geometry":{"type": "Point","coordinates":[89.5830555558693,22.801852778283148,0]}},{"type":"Feature","properties":{"ID":"43","Name":"Labanchara Ghat (W)","Latitude":"22.76507222","Longitude":"89.57695000"},"geometry":{"type": "Point","coordinates":[89.57695000004253,22.765072221605806,0]}},{"type":"Feature","properties":{"ID":"44","Name":"Labanchara Ghat (E)","Latitude":"22.76353889","Longitude":"89.58040000"},"geometry":{"type": "Point","coordinates":[89.5803999999601,22.763538889208405,0]}},{"type":"Feature","properties":{"ID":"45","Name":"Labanchara Ghat (Mid)","Latitude":"22.76428611","Longitude":"89.57883333"},"geometry":{"type": "Point","coordinates":[89.578833333291755,22.764286110715489,0]}},{"type":"Feature","properties":{"ID":"46","Name":"Tista (US)","Latitude":"25.79134444","Longitude":"89.43792222"},"geometry":{"type": "Point","coordinates":[89.4379222221329,25.79134444419077,0]}},{"type":"Feature","properties":{"ID":"47","Name":"Tista (DS)","Latitude":"25.78716111","Longitude":"89.44043889"},"geometry":{"type": "Point","coordinates":[89.440438889443271,25.787161110996522,0]}},{"type":"Feature","properties":{"ID":"48","Name":"Noapara Ghat","Latitude":"23.03639444","Longitude":"89.39529722"},"geometry":{"type": "Point","coordinates":[89.395297222388933,23.036394444448092,0]}},{"type":"Feature","properties":{"ID":"49","Name":"Kamarkhali Ghat (Bazar)","Latitude":"23.53211944","Longitude":"89.53821667"},"geometry":{"type": "Point","coordinates":[89.5382166671655,23.532119444157047,0]}},{"type":"Feature","properties":{"ID":"50","Name":"G. K Ghat","Latitude":"23.91536944","Longitude":"89.12908611"},"geometry":{"type": "Point","coordinates":[89.129086111135166,23.915369444344435,0]}},{"type":"Feature","properties":{"ID":"51","Name":"Mollarhat (Patgati)","Latitude":"22.88095833","Longitude":"89.89593056"},"geometry":{"type": "Point","coordinates":[89.895930556350152,22.880958332561022,0]}},{"type":"Feature","properties":{"ID":"52","Name":"Matidali Bridge","Latitude":"24.80661667","Longitude":"89.40604444"},"geometry":{"type": "Point","coordinates":[89.4060444436962,24.806616666625928,0]}},{"type":"Feature","properties":{"ID":"53","Name":"Duttabari Bridge","Latitude":"24.85484167","Longitude":"89.37392222"},"geometry":{"type": "Point","coordinates":[89.373922222332737,24.854841667409062,0]}},{"type":"Feature","properties":{"ID":"54","Name":"Fateh Ali Bridge","Latitude":"24.85089167","Longitude":"89.37565833"},"geometry":{"type": "Point","coordinates":[89.37565833296577,24.850891666916937,0]}},{"type":"Feature","properties":{"ID":"55","Name":"S. P Bridge","Latitude":"24.84364722","Longitude":"89.38178611"},"geometry":{"type": "Point","coordinates":[89.381786111040242,24.843647222241543,0]}},{"type":"Feature","properties":{"ID":"56","Name":"Kaliganj (Bashantapur)","Latitude":"22.47322222","Longitude":"89.00553056"},"geometry":{"type": "Point","coordinates":[89.005530555690655,22.4732222221279,0]}},{"type":"Feature","properties":{"ID":"57","Name":"Rangpur Katakhal Bazar","Latitude":"22.89145556","Longitude":"89.45958889"},"geometry":{"type": "Point","coordinates":[89.459588889415784,22.891455555829282,0]}},{"type":"Feature","properties":{"ID":"58","Name":"Barishal Lunch Ghat","Latitude":"22.70460278","Longitude":"90.37948889"},"geometry":{"type": "Point","coordinates":[90.379488888901165,22.704602777596165,0]}},{"type":"Feature","properties":{"ID":"59","Name":"Jhalkathi Lunch Ghat (Sugandha)???","Latitude":"22.63200000","Longitude":"90.19377222"},"geometry":{"type": "Point","coordinates":[90.193772222410189,22.6319999998002,0]}},{"type":"Feature","properties":{"ID":"60","Name":"Fenchuganj Fertilizer Industry","Latitude":"24.65418889","Longitude":"91.90500278"},"geometry":{"type": "Point","coordinates":[91.905002778255664,24.65418888860637,0]}},{"type":"Feature","properties":{"ID":"61","Name":"Zakiganj (Check)?????","Latitude":"24.87491667","Longitude":"92.37022222"},"geometry":{"type": "Point","coordinates":[92.370222221978,24.874916666870718,0]}},{"type":"Feature","properties":{"ID":"62","Name":"Shahjalal Bridge","Latitude":"24.88158333","Longitude":"91.87932500"},"geometry":{"type": "Point","coordinates":[91.879324999748974,24.881583333104402,0]}},{"type":"Feature","properties":{"ID":"63","Name":"Kazir Bazar","Latitude":"24.88695833","Longitude":"91.85986111"},"geometry":{"type": "Point","coordinates":[91.859861111201383,24.886958332760912,0]}},{"type":"Feature","properties":{"ID":"64","Name":"Mymensings (Railway Quarter)","Latitude":"24.74140000","Longitude":"90.42745556"},"geometry":{"type": "Point","coordinates":[90.427455555829283,24.741400000109991,0]}},{"type":"Feature","properties":{"ID":"65","Name":"Beutha Ghat","Latitude":"23.84660000","Longitude":"89.99921389"},"geometry":{"type": "Point","coordinates":[89.99921388920967,23.846599999790214,0]}}]}