{"type":"FeatureCollection","features":[{"type":"Feature","properties":{"ID":"1","Name":"Mongla Port"},"geometry":{"type": "Point","coordinates":[89.5888388891035,22.470738889088523,0]}},{"type":"Feature","properties":{"ID":"2","Name":"Fultala Ghat"},"geometry":{"type": "Point","coordinates":[89.5137416671443,22.926924999888911,0]}},{"type":"Feature","properties":{"ID":"3","Name":"Bakail Bridge (Titas)"},"geometry":{"type": "Point","coordinates":[91.176791666702115,24.045202777586155,0]}},{"type":"Feature","properties":{"ID":"4","Name":"TSP (Avg)"},"geometry":{"type": "Point","coordinates":[91.804111111438715,22.275911110909078,0]}},{"type":"Feature","properties":{"ID":"5","Name":"Chattak"},"geometry":{"type": "Point","coordinates":[91.672194443818569,25.039505556036659,0]}},{"type":"Feature","properties":{"ID":"6","Name":"Karnaphuli Urea Fertilizer Ltd (Avg)"},"geometry":{"type": "Point","coordinates":[91.822083333179364,22.238469443709903,0]}},{"type":"Feature","properties":{"ID":"7","Name":"Karnaphuli Urea Fertilizer Ltd (DS)"},"geometry":{"type": "Point","coordinates":[91.812097221609577,22.230227777689834,0]}},{"type":"Feature","properties":{"ID":"8","Name":"Karnaphuli Urea Fertilizer Ltd.(US)"},"geometry":{"type": "Point","coordinates":[91.830583333054449,22.245613889169704,0]}},{"type":"Feature","properties":{"ID":"9","Name":"TSP Downstream"},"geometry":{"type": "Point","coordinates":[91.8092805557531,22.274041666789515,0]}},{"type":"Feature","properties":{"ID":"10","Name":"TSP Upstream"},"geometry":{"type": "Point","coordinates":[91.799338888678847,22.279094443853523,0]}},{"type":"Feature","properties":{"ID":"11","Name":"Mawa Ferighat"},"geometry":{"type": "Point","coordinates":[90.254983332814618,23.472144443811089,0]}},{"type":"Feature","properties":{"ID":"12","Name":"Hossain Dyeing"},"geometry":{"type": "Point","coordinates":[90.423263888617612,23.889650000247343,0]}},{"type":"Feature","properties":{"ID":"13","Name":"Ghorashal Fertilizer Factory"},"geometry":{"type": "Point","coordinates":[90.63616111064681,23.98912500011869,0]}},{"type":"Feature","properties":{"ID":"14","Name":"Pagla Ghat"},"geometry":{"type": "Point","coordinates":[90.501005556261475,23.718852778033352,0]}},{"type":"Feature","properties":{"ID":"15","Name":"Hazaribagh"},"geometry":{"type": "Point","coordinates":[90.351997221894351,23.740469443909774,0]}},{"type":"Feature","properties":{"ID":"16","Name":"Mirpur Bridge"},"geometry":{"type": "Point","coordinates":[90.335489482253877,23.784356888559614,0]}},{"type":"Feature","properties":{"ID":"17","Name":"Kamrangir Char"},"geometry":{"type": "Point","coordinates":[90.360527778034566,23.714394443848562,0]}},{"type":"Feature","properties":{"ID":"18","Name":"Chandni Ghat"},"geometry":{"type": "Point","coordinates":[90.390641666679642,23.711338889278352,0]}},{"type":"Feature","properties":{"ID":"19","Name":"Sadar Ghat"},"geometry":{"type": "Point","coordinates":[90.416619443732372,23.699477777577442,0]}},{"type":"Feature","properties":{"ID":"20","Name":"Dholaikhal"},"geometry":{"type": "Point","coordinates":[90.419141667054362,23.709908333203089,0]}},{"type":"Feature","properties":{"ID":"21","Name":"Pagla"},"geometry":{"type": "Point","coordinates":[90.455233333151853,23.661080556422576,0]}},{"type":"Feature","properties":{"ID":"22","Name":"BCF Bridge"},"geometry":{"type": "Point","coordinates":[90.426466666703391,23.687313889324571,0]}},{"type":"Feature","properties":{"ID":"23","Name":"Near ACI"},"geometry":{"type": "Point","coordinates":[90.522702778010853,23.791061111381225,0]}},{"type":"Feature","properties":{"ID":"24","Name":"Tongi Rail Bridge"},"geometry":{"type": "Point","coordinates":[90.40610555602666,23.881966666628387,0]}},{"type":"Feature","properties":{"ID":"25","Name":"Azmeri Composite Ltd."},"geometry":{"type": "Point","coordinates":[90.412919443977216,23.88340555582181,0]}},{"type":"Feature","properties":{"ID":"26","Name":"Indigo Washing Plant Ltd."},"geometry":{"type": "Point","coordinates":[90.402077777667387,23.88194722238643,0]}},{"type":"Feature","properties":{"ID":"27","Name":"Muktarpur Ferighat"},"geometry":{"type": "Point","coordinates":[90.5150916671468,23.56674166659468,0]}},{"type":"Feature","properties":{"ID":"28","Name":"Horindhora"},"geometry":{"type": "Point","coordinates":[90.241061110781686,23.788397222353979,0]}},{"type":"Feature","properties":{"ID":"29","Name":"Bahadurabad Ghat"},"geometry":{"type": "Point","coordinates":[89.731886111355038,25.164347222046729,0]}},{"type":"Feature","properties":{"ID":"30","Name":"Jamuna Fertilizer"},"geometry":{"type": "Point","coordinates":[89.81662222203795,24.668405555871743,0]}},{"type":"Feature","properties":{"ID":"31","Name":"Meghna Ghat"},"geometry":{"type": "Point","coordinates":[90.6129888892259,23.608572222330224,0]}},{"type":"Feature","properties":{"ID":"32","Name":"Bashundhara Paper Mills"},"geometry":{"type": "Point","coordinates":[90.6185833333542,23.611363888832443,0]}},{"type":"Feature","properties":{"ID":"33","Name":"Shahjalal Paper Mill"},"geometry":{"type": "Point","coordinates":[90.551586110810433,23.573702778060806,0]}},{"type":"Feature","properties":{"ID":"34","Name":"Bhairab Bridge"},"geometry":{"type": "Point","coordinates":[90.994041666689611,24.043286110965312,0]}},{"type":"Feature","properties":{"ID":"35","Name":"Mohra WASA WTP (US)"},"geometry":{"type": "Point","coordinates":[91.882616666825754,22.41809722240896,0]}},{"type":"Feature","properties":{"ID":"36","Name":"Mohra WASA WTP (DS)"},"geometry":{"type": "Point","coordinates":[91.888402778065824,22.412611110614307,0]}},{"type":"Feature","properties":{"ID":"37","Name":"Mohra WASA WTP (Avg)"},"geometry":{"type": "Point","coordinates":[91.8854583329358,22.415108332783404,0]}},{"type":"Feature","properties":{"ID":"38","Name":"Modunaghat Bridge (Mid)"},"geometry":{"type": "Point","coordinates":[91.872427777919654,22.434486111245064,0]}},{"type":"Feature","properties":{"ID":"39","Name":"Gollamari Bridge (Mid)"},"geometry":{"type": "Point","coordinates":[89.540291666627184,22.800497222069168,0]}},{"type":"Feature","properties":{"ID":"40","Name":"Rupsha Ghat (W)"},"geometry":{"type": "Point","coordinates":[89.581530555690676,22.80222222157829,0]}},{"type":"Feature","properties":{"ID":"41","Name":"Rupsha Ghat (E)"},"geometry":{"type": "Point","coordinates":[89.584480555932942,22.801447221811884,0]}},{"type":"Feature","properties":{"ID":"42","Name":"Rupsha Ghat (Mid)"},"geometry":{"type": "Point","coordinates":[89.5830555558693,22.801852778283148,0]}},{"type":"Feature","properties":{"ID":"43","Name":"Labanchara Ghat (W)"},"geometry":{"type": "Point","coordinates":[89.57695000004253,22.765072221605806,0]}},{"type":"Feature","properties":{"ID":"44","Name":"Labanchara Ghat (E)"},"geometry":{"type": "Point","coordinates":[89.5803999999601,22.763538889208405,0]}},{"type":"Feature","properties":{"ID":"45","Name":"Labanchara Ghat (Mid)"},"geometry":{"type": "Point","coordinates":[89.578833333291755,22.764286110715489,0]}},{"type":"Feature","properties":{"ID":"46","Name":"Tista (US)"},"geometry":{"type": "Point","coordinates":[89.4379222221329,25.79134444419077,0]}},{"type":"Feature","properties":{"ID":"47","Name":"Tista (DS)"},"geometry":{"type": "Point","coordinates":[89.440438889443271,25.787161110996522,0]}},{"type":"Feature","properties":{"ID":"48","Name":"Noapara Ghat"},"geometry":{"type": "Point","coordinates":[89.395297222388933,23.036394444448092,0]}},{"type":"Feature","properties":{"ID":"49","Name":"Kamarkhali Ghat (Bazar)"},"geometry":{"type": "Point","coordinates":[89.5382166671655,23.532119444157047,0]}},{"type":"Feature","properties":{"ID":"50","Name":"G. K Ghat"},"geometry":{"type": "Point","coordinates":[89.129086111135166,23.915369444344435,0]}},{"type":"Feature","properties":{"ID":"51","Name":"Mollarhat (Patgati)"},"geometry":{"type": "Point","coordinates":[89.895930556350152,22.880958332561022,0]}},{"type":"Feature","properties":{"ID":"52","Name":"Matidali Bridge"},"geometry":{"type": "Point","coordinates":[89.4060444436962,24.806616666625928,0]}},{"type":"Feature","properties":{"ID":"53","Name":"Duttabari Bridge"},"geometry":{"type": "Point","coordinates":[89.373922222332737,24.854841667409062,0]}},{"type":"Feature","properties":{"ID":"54","Name":"Fateh Ali Bridge"},"geometry":{"type": "Point","coordinates":[89.37565833296577,24.850891666916937,0]}},{"type":"Feature","properties":{"ID":"55","Name":"S. P Bridge"},"geometry":{"type": "Point","coordinates":[89.381786111040242,24.843647222241543,0]}},{"type":"Feature","properties":{"ID":"56","Name":"Kaliganj (Bashantapur)"},"geometry":{"type": "Point","coordinates":[89.005530555690655,22.4732222221279,0]}},{"type":"Feature","properties":{"ID":"57","Name":"Rangpur Katakhal Bazar"},"geometry":{"type": "Point","coordinates":[89.459588889415784,22.891455555829282,0]}},{"type":"Feature","properties":{"ID":"58","Name":"Barishal Lunch Ghat"},"geometry":{"type": "Point","coordinates":[90.379488888901165,22.704602777596165,0]}},{"type":"Feature","properties":{"ID":"59","Name":"Jhalkathi Lunch Ghat (Sugandha)???"},"geometry":{"type": "Point","coordinates":[90.193772222410189,22.6319999998002,0]}},{"type":"Feature","properties":{"ID":"60","Name":"Fenchuganj Fertilizer Industry"},"geometry":{"type": "Point","coordinates":[91.905002778255664,24.65418888860637,0]}},{"type":"Feature","properties":{"ID":"61","Name":"Zakiganj (Check)?????"},"geometry":{"type": "Point","coordinates":[92.370222221978,24.874916666870718,0]}},{"type":"Feature","properties":{"ID":"62","Name":"Shahjalal Bridge"},"geometry":{"type": "Point","coordinates":[91.879324999748974,24.881583333104402,0]}},{"type":"Feature","properties":{"ID":"63","Name":"Kazir Bazar"},"geometry":{"type": "Point","coordinates":[91.859861111201383,24.886958332760912,0]}},{"type":"Feature","properties":{"ID":"64","Name":"Mymensings (Railway Quarter)"},"geometry":{"type": "Point","coordinates":[90.427455555829283,24.741400000109991,0]}},{"type":"Feature","properties":{"ID":"65","Name":"Beutha Ghat"},"geometry":{"type": "Point","coordinates":[89.99921388920967,23.846599999790214,0]}}]}